{"type":"FeatureCollection","features":[{"type":"Feature","geometry":{"coordinates":[-0.3700983687255801,39.47446171631874],"type":"Point"},"properties":{"gid":5,"nombre":"PALAU DE MONTORTAL","numpol":"4","telefono":"0","ruta":5,"audio":0,"escena":null,"nombreaudio":null,"geo_point_2d":{"lon":-0.3700983687255801,"lat":39.47446171631874}}},{"type":"Feature","geometry":{"coordinates":[-0.3743753382112253,39.476587395626915],"type":"Point"},"properties":{"gid":6,"nombre":"PALAU DE LA MARQUESA DE COLOMINA","numpol":"1","telefono":"0","ruta":7,"audio":0,"escena":null,"nombreaudio":null,"geo_point_2d":{"lon":-0.3743753382112253,"lat":39.476587395626915}}},{"type":"Feature","geometry":{"coordinates":[-0.3786890903278158,39.47416072416168],"type":"Point"},"properties":{"gid":11,"nombre":"PLA\u00c7A DEL MERCAT","numpol":null,"telefono":"0","ruta":3,"audio":0,"escena":null,"nombreaudio":null,"geo_point_2d":{"lon":-0.3786890903278158,"lat":39.47416072416168}}},{"type":"Feature","geometry":{"coordinates":[-0.3307277630590073,39.458374375186445],"type":"Point"},"properties":{"gid":15,"nombre":"PORT DE VAL\u00c8NCIA","numpol":null,"telefono":"0","ruta":8,"audio":0,"escena":null,"nombreaudio":null,"geo_point_2d":{"lon":-0.3307277630590073,"lat":39.458374375186445}}},{"type":"Feature","geometry":{"coordinates":[-0.37215494411724137,39.47985620013994],"type":"Point"},"properties":{"gid":17,"nombre":"REIAL MONESTIR DE LA TRINITAT","numpol":"13","telefono":"963605255","ruta":3,"audio":0,"escena":null,"nombreaudio":null,"geo_point_2d":{"lon":-0.37215494411724137,"lat":39.47985620013994}}},{"type":"Feature","geometry":{"coordinates":[-0.3730859820854088,39.47200721103887],"type":"Point"},"properties":{"gid":20,"nombre":"UNIVERSITAT DE VAL\u00c8NCIA","numpol":"2","telefono":"963864100","ruta":4,"audio":0,"escena":null,"nombreaudio":null,"geo_point_2d":{"lon":-0.3730859820854088,"lat":39.47200721103887}}},{"type":"Feature","geometry":{"coordinates":[-0.32863502582981485,39.46787869600743],"type":"Point"},"properties":{"gid":22,"nombre":"ESGL\u00c9SIA PARROQUIAL DEL CRIST REDEMPTOR, EL CABANYAL","numpol":"96","telefono":"963712520","ruta":9,"audio":0,"escena":null,"nombreaudio":null,"geo_point_2d":{"lon":-0.32863502582981485,"lat":39.46787869600743}}},{"type":"Feature","geometry":{"coordinates":[-0.362836396388384,39.46174170985962],"type":"Point"},"properties":{"gid":23,"nombre":"ESGL\u00c9SIA PARROQUIAL DE JES\u00daS MESTRE","numpol":"8","telefono":"963731417","ruta":9,"audio":0,"escena":null,"nombreaudio":null,"geo_point_2d":{"lon":-0.362836396388384,"lat":39.46174170985962}}},{"type":"Feature","geometry":{"coordinates":[-0.38904750215060363,39.45968290784195],"type":"Point"},"properties":{"gid":25,"nombre":"ESGL\u00c9SIA PARROQUIAL DE L'ANTIC CONVENT DE SANTA MARIA DE JES\u00daS","numpol":"9","telefono":"963804556","ruta":3,"audio":0,"escena":null,"nombreaudio":null,"geo_point_2d":{"lon":-0.38904750215060363,"lat":39.45968290784195}}},{"type":"Feature","geometry":{"coordinates":[-0.3781888391857854,39.51665986789625],"type":"Point"},"properties":{"gid":28,"nombre":"ESGL\u00c9SIA PARROQUIAL DELS SANTS ABD\u00d3 I SENENT","numpol":"4","telefono":"961850195","ruta":8,"audio":0,"escena":null,"nombreaudio":null,"geo_point_2d":{"lon":-0.3781888391857854,"lat":39.51665986789625}}},{"type":"Feature","geometry":{"coordinates":[-0.3911525126151341,39.43557277393052],"type":"Point"},"properties":{"gid":31,"nombre":"ESGL\u00c9SIA PARROQUIAL DE LA MARE DE D\u00c9U DE GR\u00c0CIA - LA TORRE","numpol":"16","telefono":"963772432","ruta":9,"audio":0,"escena":null,"nombreaudio":null,"geo_point_2d":{"lon":-0.3911525126151341,"lat":39.43557277393052}}},{"type":"Feature","geometry":{"coordinates":[-0.3764490332381726,39.48519993028469],"type":"Point"},"properties":{"gid":67,"nombre":"CASA MUSEU CONCHA PIQUER","numpol":"23","telefono":"963485658","ruta":9,"audio":0,"escena":null,"nombreaudio":null,"geo_point_2d":{"lon":-0.3764490332381726,"lat":39.48519993028469}}},{"type":"Feature","geometry":{"coordinates":[-0.37428721883414495,39.47592028763205],"type":"Point"},"properties":{"gid":80,"nombre":"CAPELLA DE SANT VALERI","numpol":"4","telefono":"0","ruta":5,"audio":0,"escena":null,"nombreaudio":null,"geo_point_2d":{"lon":-0.37428721883414495,"lat":39.47592028763205}}},{"type":"Feature","geometry":{"coordinates":[-0.37279690252640485,39.474724291342035],"type":"Point"},"properties":{"gid":81,"nombre":"CASA DE LA BARONESSA D'ALAQU\u00c0S","numpol":"9","telefono":"0","ruta":7,"audio":0,"escena":null,"nombreaudio":null,"geo_point_2d":{"lon":-0.37279690252640485,"lat":39.474724291342035}}},{"type":"Feature","geometry":{"coordinates":[-0.3755855124661028,39.478004245373114],"type":"Point"},"properties":{"gid":88,"nombre":"CASA DE MONTOLIU","numpol":"6","telefono":"0","ruta":6,"audio":0,"escena":null,"nombreaudio":null,"geo_point_2d":{"lon":-0.3755855124661028,"lat":39.478004245373114}}},{"type":"Feature","geometry":{"coordinates":[-0.3726945293606167,39.47493944715987],"type":"Point"},"properties":{"gid":89,"nombre":"CASA PALAU DELS COMTES D'ALMENARA","numpol":"10","telefono":"0","ruta":6,"audio":0,"escena":null,"nombreaudio":null,"geo_point_2d":{"lon":-0.3726945293606167,"lat":39.47493944715987}}},{"type":"Feature","geometry":{"coordinates":[-0.37381756118080434,39.47604165158063],"type":"Point"},"properties":{"gid":92,"nombre":"MUSEU DE LA CIUTAT","numpol":"3","telefono":"963525478","ruta":8,"audio":0,"escena":null,"nombreaudio":null,"geo_point_2d":{"lon":-0.37381756118080434,"lat":39.47604165158063}}},{"type":"Feature","geometry":{"coordinates":[-0.3705596280337386,39.46246537673746],"type":"Point"},"properties":{"gid":95,"nombre":"EDIFICI D'HABITATGES DONOSO CORT\u00c9S, 7 (CANTONADA AMB LA PLA\u00c7A DE RUSSAFA)","numpol":"7","telefono":"0","ruta":9,"audio":0,"escena":null,"nombreaudio":null,"geo_point_2d":{"lon":-0.3705596280337386,"lat":39.46246537673746}}},{"type":"Feature","geometry":{"coordinates":[-0.3752834625703955,39.476318011561055],"type":"Point"},"properties":{"gid":97,"nombre":"MONUMENTS DE LA PLA\u00c7A DE LA MARE DE D\u00c9U DELS DESEMPARATS","numpol":null,"telefono":"0","ruta":0,"audio":0,"escena":null,"nombreaudio":null,"geo_point_2d":{"lon":-0.3752834625703955,"lat":39.476318011561055}}},{"type":"Feature","geometry":{"coordinates":[-0.42521351059218365,39.500521691109384],"type":"Point"},"properties":{"gid":102,"nombre":"ESGL\u00c9SIA DE LES ESCOLES DE L'AVE MARIA (BENIM\u00c0MET)","numpol":"76","telefono":"963640633","ruta":9,"audio":0,"escena":null,"nombreaudio":null,"geo_point_2d":{"lon":-0.42521351059218365,"lat":39.500521691109384}}},{"type":"Feature","geometry":{"coordinates":[-0.3329457391526881,39.38306960009446],"type":"Point"},"properties":{"gid":104,"nombre":"PARR\u00d2QUIA DE SANT JOSEP (EL SALER)","numpol":"9","telefono":"0","ruta":9,"audio":0,"escena":null,"nombreaudio":null,"geo_point_2d":{"lon":-0.3329457391526881,"lat":39.38306960009446}}},{"type":"Feature","geometry":{"coordinates":[-0.37808901396983885,39.47477131054383],"type":"Point"},"properties":{"gid":108,"nombre":"ESGL\u00c9SIA DEL SAGRAT COR DE JES\u00daS (COMPANYIA DE JES\u00daS)","numpol":"10","telefono":"963918604","ruta":7,"audio":0,"escena":null,"nombreaudio":null,"geo_point_2d":{"lon":-0.37808901396983885,"lat":39.47477131054383}}},{"type":"Feature","geometry":{"coordinates":[-0.3917166477568356,39.46257926663843],"type":"Point"},"properties":{"gid":109,"nombre":"ESGL\u00c9SIA DEL SAGRAT COR DE JES\u00daS (PATRAIX)","numpol":"21","telefono":"963805430","ruta":9,"audio":0,"escena":null,"nombreaudio":null,"geo_point_2d":{"lon":-0.3917166477568356,"lat":39.46257926663843}}},{"type":"Feature","geometry":{"coordinates":[-0.3595470617204468,39.48630038207091],"type":"Point"},"properties":{"gid":110,"nombre":"ESGL\u00c9SIA DE LA MARE DE D\u00c9U DE L'ASSUMPCI\u00d3 (BENIMACLET)","numpol":"2","telefono":"963624278","ruta":7,"audio":0,"escena":null,"nombreaudio":null,"geo_point_2d":{"lon":-0.3595470617204468,"lat":39.48630038207091}}},{"type":"Feature","geometry":{"coordinates":[-0.3703581677726591,39.48337886549461],"type":"Point"},"properties":{"gid":111,"nombre":"ESGL\u00c9SIA DE LA MARE DE D\u00c9U DEL CARME (PARES CARMELITES)","numpol":"33","telefono":"963606757","ruta":7,"audio":0,"escena":null,"nombreaudio":null,"geo_point_2d":{"lon":-0.3703581677726591,"lat":39.48337886549461}}},{"type":"Feature","geometry":{"coordinates":[-0.3752385949435326,39.47777344248315],"type":"Point"},"properties":{"gid":113,"nombre":"ESGL\u00c9SIA DE SANT LLOREN\u00c7","numpol":"4","telefono":"963917803","ruta":4,"audio":0,"escena":null,"nombreaudio":null,"geo_point_2d":{"lon":-0.3752385949435326,"lat":39.47777344248315}}},{"type":"Feature","geometry":{"coordinates":[-0.38612269145803824,39.48240831907129],"type":"Point"},"properties":{"gid":114,"nombre":"ESGL\u00c9SIA PARROQUIAL DE SANT JOAN BOSCO","numpol":"21","telefono":"963495548","ruta":9,"audio":0,"escena":null,"nombreaudio":null,"geo_point_2d":{"lon":-0.38612269145803824,"lat":39.48240831907129}}},{"type":"Feature","geometry":{"coordinates":[-0.3704291869343144,39.46891188539683],"type":"Point"},"properties":{"gid":116,"nombre":"ESGL\u00c9SIA PARROQUIAL DE SANT JOAN I SANT VICENT","numpol":"13","telefono":"963512595","ruta":9,"audio":0,"escena":null,"nombreaudio":null,"geo_point_2d":{"lon":-0.3704291869343144,"lat":39.46891188539683}}},{"type":"Feature","geometry":{"coordinates":[-0.3904901981425865,39.51523624532855],"type":"Point"},"properties":{"gid":122,"nombre":"ESGL\u00c9SIA PARROQUIAL DE SANTA ANNA (BORBOT\u00d3)","numpol":"1","telefono":"963638098","ruta":6,"audio":0,"escena":null,"nombreaudio":null,"geo_point_2d":{"lon":-0.3904901981425865,"lat":39.51523624532855}}},{"type":"Feature","geometry":{"coordinates":[-0.39737235975995616,39.48213417587745],"type":"Point"},"properties":{"gid":123,"nombre":"ESGL\u00c9SIA PARROQUIAL DE LA MARE DE D\u00c9U DE LA MISERIC\u00d2RDIA (CAMPANAR)","numpol":"11","telefono":"963492818","ruta":4,"audio":0,"escena":null,"nombreaudio":null,"geo_point_2d":{"lon":-0.39737235975995616,"lat":39.48213417587745}}},{"type":"Feature","geometry":{"coordinates":[-0.3679709821086913,39.45920189846907],"type":"Point"},"properties":{"gid":125,"nombre":"ESGL\u00c9SIA PARROQUIAL DE SANT TOM\u00c0S DE VILLANUEVA (PEDANIA LA FONTETA DE SANT LLU\u00cdS)","numpol":"9","telefono":"963343441","ruta":9,"audio":0,"escena":null,"nombreaudio":null,"geo_point_2d":{"lon":-0.3679709821086913,"lat":39.45920189846907}}},{"type":"Feature","geometry":{"coordinates":[-0.3777646171660325,39.46840696178313],"type":"Point"},"properties":{"gid":130,"nombre":"ESGL\u00c9SIA DE SANT PAU (INSTITUT LLU\u00cdS VIVES)","numpol":"4","telefono":"963510568","ruta":5,"audio":0,"escena":null,"nombreaudio":null,"geo_point_2d":{"lon":-0.3777646171660325,"lat":39.46840696178313}}},{"type":"Feature","geometry":{"coordinates":[-0.3701159742215172,39.47375393785749],"type":"Point"},"properties":{"gid":136,"nombre":"CENTRE CULTURAL FUNDACI\u00d3 BANCAIXA","numpol":"23","telefono":"963875864","ruta":8,"audio":0,"escena":null,"nombreaudio":null,"geo_point_2d":{"lon":-0.3701159742215172,"lat":39.47375393785749}}},{"type":"Feature","geometry":{"coordinates":[-0.3748182962418988,39.478511186513245],"type":"Point"},"properties":{"gid":138,"nombre":"COL\u00b7LEGI DEL SAGRAT COR DE JES\u00daS","numpol":"5","telefono":"963910512","ruta":7,"audio":0,"escena":null,"nombreaudio":null,"geo_point_2d":{"lon":-0.3748182962418988,"lat":39.478511186513245}}},{"type":"Feature","geometry":{"coordinates":[-0.3753658591523965,39.46949123843816],"type":"Point"},"properties":{"gid":142,"nombre":"CORREOS","numpol":"24","telefono":"963102730","ruta":9,"audio":0,"escena":null,"nombreaudio":null,"geo_point_2d":{"lon":-0.3753658591523965,"lat":39.46949123843816}}},{"type":"Feature","geometry":{"coordinates":[-0.3809069214749218,39.4687479183245],"type":"Point"},"properties":{"gid":144,"nombre":"DELEGACI\u00d3 DEL MINISTERI D'ECONOMIA I HISENDA","numpol":"4","telefono":"963509404","ruta":9,"audio":0,"escena":null,"nombreaudio":null,"geo_point_2d":{"lon":-0.3809069214749218,"lat":39.4687479183245}}},{"type":"Feature","geometry":{"coordinates":[-0.3760127467498792,39.47918124745138],"type":"Point"},"properties":{"gid":146,"nombre":"TORRES DELS SERRANS","numpol":"S\/N","telefono":"963919070","ruta":3,"audio":4,"escena":"Torres","nombreaudio":"3\/4.mp3","geo_point_2d":{"lon":-0.3760127467498792,"lat":39.47918124745138}}},{"type":"Feature","geometry":{"coordinates":[-0.37217285486541635,39.47399352329543],"type":"Point"},"properties":{"gid":148,"nombre":"ESGL\u00c9SIA DE SANT TOM\u00c0S I SANT FELIP NERI","numpol":"1","telefono":"963918755","ruta":5,"audio":27,"escena":null,"nombreaudio":"5\/27.mp3","geo_point_2d":{"lon":-0.37217285486541635,"lat":39.47399352329543}}},{"type":"Feature","geometry":{"coordinates":[-0.36767767790035316,39.4709507834758],"type":"Point"},"properties":{"gid":35,"nombre":"ESGL\u00c9SIA PARROQUIAL DE LA MARE DE D\u00c9U DEL REMEI","numpol":"12","telefono":"963517544","ruta":8,"audio":0,"escena":null,"nombreaudio":null,"geo_point_2d":{"lon":-0.36767767790035316,"lat":39.4709507834758}}},{"type":"Feature","geometry":{"coordinates":[-0.3858598233048809,39.46513496222097],"type":"Point"},"properties":{"gid":38,"nombre":"ESGL\u00c9SIA PARROQUIAL DE LA MARE DE D\u00c9U DELS SOCORS","numpol":"14","telefono":"963854173","ruta":9,"audio":0,"escena":null,"nombreaudio":null,"geo_point_2d":{"lon":-0.3858598233048809,"lat":39.46513496222097}}},{"type":"Feature","geometry":{"coordinates":[-0.37434133186499213,39.490352700693904],"type":"Point"},"properties":{"gid":43,"nombre":"ESGL\u00c9SIA PARROQUIAL DE SANT ANTONI ABAD","numpol":"188","telefono":"963661604","ruta":6,"audio":0,"escena":null,"nombreaudio":null,"geo_point_2d":{"lon":-0.37434133186499213,"lat":39.490352700693904}}},{"type":"Feature","geometry":{"coordinates":[-0.3897475038644872,39.47558523183114],"type":"Point"},"properties":{"gid":44,"nombre":"ESGL\u00c9SIA PARROQUIAL DE SANT ANTONI DE P\u00c0DUA","numpol":"6","telefono":"963822708","ruta":9,"audio":0,"escena":null,"nombreaudio":null,"geo_point_2d":{"lon":-0.3897475038644872,"lat":39.47558523183114}}},{"type":"Feature","geometry":{"coordinates":[-0.383726996575632,39.4786181118856],"type":"Point"},"properties":{"gid":46,"nombre":"CONVENT DEL CORPUS CHRISTI","numpol":"169","telefono":"963910302","ruta":5,"audio":0,"escena":null,"nombreaudio":null,"geo_point_2d":{"lon":-0.383726996575632,"lat":39.4786181118856}}},{"type":"Feature","geometry":{"coordinates":[-0.376685435627013,39.47702118604527],"type":"Point"},"properties":{"gid":49,"nombre":"PALAU DE LA BATLIA O PALAU DELS J\u00c0UDENES","numpol":"4","telefono":"0","ruta":3,"audio":0,"escena":null,"nombreaudio":null,"geo_point_2d":{"lon":-0.376685435627013,"lat":39.47702118604527}}},{"type":"Feature","geometry":{"coordinates":[-0.3785526552560779,39.47756043083819],"type":"Point"},"properties":{"gid":52,"nombre":"CASA CARRER DEL PORTAL DE LA VALLDIGNA, 12","numpol":"12","telefono":"0","ruta":0,"audio":0,"escena":null,"nombreaudio":null,"geo_point_2d":{"lon":-0.3785526552560779,"lat":39.47756043083819}}},{"type":"Feature","geometry":{"coordinates":[-0.3720139877949868,39.475894839280286],"type":"Point"},"properties":{"gid":53,"nombre":"PALAU DEL MARQU\u00c9S DE CARO","numpol":"14","telefono":"0","ruta":7,"audio":0,"escena":null,"nombreaudio":null,"geo_point_2d":{"lon":-0.3720139877949868,"lat":39.475894839280286}}},{"type":"Feature","geometry":{"coordinates":[-0.37695411756771163,39.477007793072545],"type":"Point"},"properties":{"gid":55,"nombre":"PALAU DEL MARQU\u00c9S DE LA SCALA","numpol":"3","telefono":"963882500","ruta":3,"audio":0,"escena":null,"nombreaudio":null,"geo_point_2d":{"lon":-0.37695411756771163,"lat":39.477007793072545}}},{"type":"Feature","geometry":{"coordinates":[-0.3802467394334279,39.47438927304713],"type":"Point"},"properties":{"gid":58,"nombre":"PALAU DELS EXARCHS","numpol":"5, 7, 9","telefono":"0","ruta":5,"audio":0,"escena":null,"nombreaudio":null,"geo_point_2d":{"lon":-0.3802467394334279,"lat":39.47438927304713}}},{"type":"Feature","geometry":{"coordinates":[-0.33881188444788674,39.46754556102673],"type":"Point"},"properties":{"gid":60,"nombre":"INSTITUT D'EDUCACI\u00d3 SECUND\u00c0RIA SOROLLA","numpol":"2","telefono":"963720016","ruta":9,"audio":0,"escena":null,"nombreaudio":null,"geo_point_2d":{"lon":-0.33881188444788674,"lat":39.46754556102673}}},{"type":"Feature","geometry":{"coordinates":[-0.3813557121356035,39.46969845749664],"type":"Point"},"properties":{"gid":182,"nombre":"MUVIM","numpol":"8,  y QUEVEDO, 10","telefono":"963883730","ruta":10,"audio":75,"escena":null,"nombreaudio":"10\/75.mp3","geo_point_2d":{"lon":-0.3813557121356035,"lat":39.46969845749664}}},{"type":"Feature","geometry":{"coordinates":[-0.36973366126309654,39.47182326630681],"type":"Point"},"properties":{"gid":184,"nombre":"PALAU DE JUST\u00cdCIA","numpol":"S\/N","telefono":"0","ruta":6,"audio":32,"escena":null,"nombreaudio":"6\/32.mp3","geo_point_2d":{"lon":-0.36973366126309654,"lat":39.47182326630681}}},{"type":"Feature","geometry":{"coordinates":[-0.38023938937688967,39.476213649882254],"type":"Point"},"properties":{"gid":188,"nombre":"GALERIA DEL TOSSAL","numpol":"S\/N","telefono":"963981803","ruta":2,"audio":3,"escena":null,"nombreaudio":"2\/3.mp3","geo_point_2d":{"lon":-0.38023938937688967,"lat":39.476213649882254}}},{"type":"Feature","geometry":{"coordinates":[-0.3763908284072542,39.4740728161604],"type":"Point"},"properties":{"gid":189,"nombre":"ESGL\u00c9SIA DE SANTA CATERINA","numpol":"S\/N","telefono":"963917713","ruta":3,"audio":9,"escena":null,"nombreaudio":"3\/9.mp3","geo_point_2d":{"lon":-0.3763908284072542,"lat":39.4740728161604}}},{"type":"Feature","geometry":{"coordinates":[-0.3746438069083626,39.47787108191776],"type":"Point"},"properties":{"gid":190,"nombre":"PALAU DE BENICARL\u00d3","numpol":"4","telefono":"963876100","ruta":3,"audio":12,"escena":null,"nombreaudio":"3\/12.mp3","geo_point_2d":{"lon":-0.3746438069083626,"lat":39.47787108191776}}},{"type":"Feature","geometry":{"coordinates":[-0.3745715374070493,39.47206781428367],"type":"Point"},"properties":{"gid":197,"nombre":"ESGL\u00c9SIA DE SANT JOAN DE LA CREU","numpol":"6","telefono":"963522325","ruta":5,"audio":29,"escena":null,"nombreaudio":"5\/29.mp3","geo_point_2d":{"lon":-0.3745715374070493,"lat":39.47206781428367}}},{"type":"Feature","geometry":{"coordinates":[-0.3758764395209515,39.473223386761184],"type":"Point"},"properties":{"gid":200,"nombre":"ESGL\u00c9SIA PARROQUIAL DE SANT MART\u00cd","numpol":"2","telefono":"963522952","ruta":6,"audio":36,"escena":null,"nombreaudio":"6\/36.mp3","geo_point_2d":{"lon":-0.3758764395209515,"lat":39.473223386761184}}},{"type":"Feature","geometry":{"coordinates":[-0.3818022552316001,39.473906601095],"type":"Point"},"properties":{"gid":202,"nombre":"COL\u00b7LEGI DE LES ESCOLES PIES","numpol":"6","telefono":"963915800","ruta":6,"audio":39,"escena":null,"nombreaudio":"6\/39.mp3","geo_point_2d":{"lon":-0.3818022552316001,"lat":39.473906601095}}},{"type":"Feature","geometry":{"coordinates":[-0.38090769114987055,39.47079643683795],"type":"Point"},"properties":{"gid":203,"nombre":"MUSEU DEL COL\u00b7LEGI DE L'ART MAJOR DE LA SEDA","numpol":"7","telefono":"963511951","ruta":6,"audio":40,"escena":null,"nombreaudio":"6\/40.mp3","geo_point_2d":{"lon":-0.38090769114987055,"lat":39.47079643683795}}},{"type":"Feature","geometry":{"coordinates":[-0.37214779273978066,39.47130133147009],"type":"Point"},"properties":{"gid":204,"nombre":"PALAU DELS PESCARA","numpol":null,"telefono":"0","ruta":7,"audio":44,"escena":null,"nombreaudio":"7\/44.mp3","geo_point_2d":{"lon":-0.37214779273978066,"lat":39.47130133147009}}},{"type":"Feature","geometry":{"coordinates":[-0.3744764305268653,39.47057922098156],"type":"Point"},"properties":{"gid":205,"nombre":"TEATRE PRINCIPAL","numpol":"15","telefono":"963539200","ruta":7,"audio":45,"escena":null,"nombreaudio":"7\/45.mp3","geo_point_2d":{"lon":-0.3744764305268653,"lat":39.47057922098156}}},{"type":"Feature","geometry":{"coordinates":[-0.3825891809375533,39.47833861952678],"type":"Point"},"properties":{"gid":207,"nombre":"ASIL DEL MARQU\u00c9S DE CAMPO","numpol":"36","telefono":"963910530","ruta":7,"audio":48,"escena":null,"nombreaudio":"7\/48.mp3","geo_point_2d":{"lon":-0.3825891809375533,"lat":39.47833861952678}}},{"type":"Feature","geometry":{"coordinates":[-0.3832936437279282,39.478462591212164],"type":"Point"},"properties":{"gid":208,"nombre":"BENEFIC\u00c8NCIA","numpol":"36","telefono":"963883565","ruta":7,"audio":49,"escena":null,"nombreaudio":"7\/49.mp3","geo_point_2d":{"lon":-0.3832936437279282,"lat":39.478462591212164}}},{"type":"Feature","geometry":{"coordinates":[-0.37777485070572736,39.4802390177909],"type":"Point"},"properties":{"gid":210,"nombre":"SAL\u00d3 DE RACIONISTES","numpol":"15","telefono":"0","ruta":7,"audio":51,"escena":null,"nombreaudio":"7\/51.mp3","geo_point_2d":{"lon":-0.37777485070572736,"lat":39.4802390177909}}},{"type":"Feature","geometry":{"coordinates":[-0.36840182071888544,39.46891931754965],"type":"Point"},"properties":{"gid":212,"nombre":"MERCAT DE COLOM","numpol":"19","telefono":"963525478","ruta":8,"audio":59,"escena":null,"nombreaudio":"8\/59.mp3","geo_point_2d":{"lon":-0.36840182071888544,"lat":39.46891931754965}}},{"type":"Feature","geometry":{"coordinates":[-0.37477459435891464,39.472540857919164],"type":"Point"},"properties":{"gid":213,"nombre":"PALAU DEL MARQU\u00c9S DE DOSAIG\u00dcES","numpol":"6","telefono":"963516392","ruta":6,"audio":34,"escena":null,"nombreaudio":"6\/34.mp3","geo_point_2d":{"lon":-0.37477459435891464,"lat":39.472540857919164}}},{"type":"Feature","geometry":{"coordinates":[-0.32427811659355055,39.46102606302019],"type":"Point"},"properties":{"gid":214,"nombre":"PORT COPA DE L'AM\u00c8RICA","numpol":null,"telefono":"0","ruta":11,"audio":78,"escena":null,"nombreaudio":"11\/78.mp3","geo_point_2d":{"lon":-0.32427811659355055,"lat":39.46102606302019}}},{"type":"Feature","geometry":{"coordinates":[-0.3735912899638117,39.48112647775223],"type":"Point"},"properties":{"gid":155,"nombre":"ESTACI\u00d3 DEL TRENET - ESTACI\u00d3 DEL PONT DE FUSTA","numpol":null,"telefono":"0","ruta":8,"audio":64,"escena":null,"nombreaudio":"8\/64.mp3","geo_point_2d":{"lon":-0.3735912899638117,"lat":39.48112647775223}}},{"type":"Feature","geometry":{"coordinates":[-0.3313796070420477,39.47689352815755],"type":"Point"},"properties":{"gid":156,"nombre":"ASIL DE SANT JOAN DE D\u00c9U","numpol":"1","telefono":"963352500","ruta":8,"audio":65,"escena":null,"nombreaudio":"8\/65.mp3","geo_point_2d":{"lon":-0.3313796070420477,"lat":39.47689352815755}}},{"type":"Feature","geometry":{"coordinates":[-0.384935140019751,39.46350897330976],"type":"Point"},"properties":{"gid":157,"nombre":"FINCA ROJA","numpol":null,"telefono":"0","ruta":9,"audio":69,"escena":null,"nombreaudio":"9\/69.mp3","geo_point_2d":{"lon":-0.384935140019751,"lat":39.46350897330976}}},{"type":"Feature","geometry":{"coordinates":[-0.36960829191515737,39.47441302344482],"type":"Point"},"properties":{"gid":164,"nombre":"REIAL CONVENT DE SANT DOM\u00c9NEC","numpol":"22","telefono":"961963000","ruta":3,"audio":14,"escena":null,"nombreaudio":"3\/14.mp3","geo_point_2d":{"lon":-0.36960829191515737,"lat":39.47441302344482}}},{"type":"Feature","geometry":{"coordinates":[-0.3707045269624461,39.470240197605584],"type":"Point"},"properties":{"gid":165,"nombre":"PORTA DELS JUEUS","numpol":"S\/N","telefono":"0","ruta":3,"audio":15,"escena":null,"nombreaudio":"3\/15.mp3","geo_point_2d":{"lon":-0.3707045269624461,"lat":39.470240197605584}}},{"type":"Feature","geometry":{"coordinates":[-0.37808433301791455,39.473217640027165],"type":"Point"},"properties":{"gid":167,"nombre":"CASA ORDEIG","numpol":"2","telefono":"0","ruta":8,"audio":55,"escena":null,"nombreaudio":"8\/55.mp3","geo_point_2d":{"lon":-0.37808433301791455,"lat":39.473217640027165}}},{"type":"Feature","geometry":{"coordinates":[-0.36814499614254786,39.47740931916025],"type":"Point"},"properties":{"gid":171,"nombre":"PORTADA DEL PALAU DELS DUCS DE MANDAS","numpol":"S\/N","telefono":"0","ruta":4,"audio":17,"escena":null,"nombreaudio":"4\/17.mp3","geo_point_2d":{"lon":-0.36814499614254786,"lat":39.47740931916025}}},{"type":"Feature","geometry":{"coordinates":[-0.37890918469906676,39.4735621028774],"type":"Point"},"properties":{"gid":218,"nombre":"MERCAT CENTRAL","numpol":"6","telefono":"963525478","ruta":8,"audio":56,"escena":null,"nombreaudio":"8\/56.mp3","geo_point_2d":{"lon":-0.37890918469906676,"lat":39.4735621028774}}},{"type":"Feature","geometry":{"coordinates":[-0.4094723493160021,39.4730778122476],"type":"Point"},"properties":{"gid":219,"nombre":"MUSEU D'HIST\u00d2RIA DE VAL\u00c8NCIA","numpol":"42","telefono":"963701105","ruta":7,"audio":53,"escena":"MuseoHistoria","nombreaudio":"7\/53.mp3","geo_point_2d":{"lon":-0.4094723493160021,"lat":39.4730778122476}}},{"type":"Feature","geometry":{"coordinates":[-0.37913798910635155,39.47427895557461],"type":"Point"},"properties":{"gid":220,"nombre":"ESGL\u00c9SIA DE SANT JOAN DEL MERCAT","numpol":"S\/N","telefono":"963916354","ruta":5,"audio":24,"escena":null,"nombreaudio":"5\/24.mp3","geo_point_2d":{"lon":-0.37913798910635155,"lat":39.47427895557461}}},{"type":"Feature","geometry":{"coordinates":[-0.3785824041162072,39.47922299492331],"type":"Point"},"properties":{"gid":221,"nombre":"ESGL\u00c9SIA DE LA MARE DE D\u00c9U DEL CARME (PARES CARMELITES)","numpol":"7","telefono":"0","ruta":5,"audio":20,"escena":null,"nombreaudio":"5\/20.mp3","geo_point_2d":{"lon":-0.3785824041162072,"lat":39.47922299492331}}},{"type":"Feature","geometry":{"coordinates":[-0.37327721054729085,39.475199911530595],"type":"Point"},"properties":{"gid":222,"nombre":"PALAU DE L'ALMIRALL","numpol":"14","telefono":"963866200","ruta":3,"audio":7,"escena":null,"nombreaudio":"3\/7.mp3","geo_point_2d":{"lon":-0.37327721054729085,"lat":39.475199911530595}}},{"type":"Feature","geometry":{"coordinates":[-0.3758618630603213,39.47695556261521],"type":"Point"},"properties":{"gid":64,"nombre":"MONESTIR DE LA PURITAT (ANTIGA CONFRARIA DE SANT JAUME)","numpol":"4","telefono":"963913520","ruta":3,"audio":0,"escena":null,"nombreaudio":null,"geo_point_2d":{"lon":-0.3758618630603213,"lat":39.47695556261521}}},{"type":"Feature","geometry":{"coordinates":[-0.37223152534567905,39.46709532497729],"type":"Point"},"properties":{"gid":93,"nombre":"EDIFICI D'HABITATGES - CASA FERRER","numpol":"29","telefono":"0","ruta":9,"audio":0,"escena":null,"nombreaudio":null,"geo_point_2d":{"lon":-0.37223152534567905,"lat":39.46709532497729}}},{"type":"Feature","geometry":{"coordinates":[-0.36644217262077045,39.476169053599634],"type":"Point"},"properties":{"gid":172,"nombre":"TORRES DELS GUARDES DE L'ALBEREDA","numpol":"S\/N","telefono":"0","ruta":6,"audio":43,"escena":null,"nombreaudio":"6\/43.mp3","geo_point_2d":{"lon":-0.36644217262077045,"lat":39.476169053599634}}},{"type":"Feature","geometry":{"coordinates":[-0.33359055103806573,39.46131408606953],"type":"Point"},"properties":{"gid":177,"nombre":"DRASSANES","numpol":null,"telefono":"963525478","ruta":11,"audio":76,"escena":null,"nombreaudio":"11\/76.mp3","geo_point_2d":{"lon":-0.33359055103806573,"lat":39.46131408606953}}},{"type":"Feature","geometry":{"coordinates":[-0.35311915235140556,39.456302251567145],"type":"Point"},"properties":{"gid":224,"nombre":"CIUTAT DE LES ARTS I LES CI\u00c8NCIES","numpol":null,"telefono":"0","ruta":10,"audio":73,"escena":null,"nombreaudio":"10\/73.mp3","geo_point_2d":{"lon":-0.35311915235140556,"lat":39.456302251567145}}},{"type":"Feature","geometry":{"coordinates":[-0.3719090538302984,39.473989548561875],"type":"Point"},"properties":{"gid":4,"nombre":"PALAU DE MONTORN\u00c9S","numpol":"1, 3, 5","telefono":"0","ruta":7,"audio":0,"escena":null,"nombreaudio":null,"geo_point_2d":{"lon":-0.3719090538302984,"lat":39.473989548561875}}},{"type":"Feature","geometry":{"coordinates":[-0.37012212972130754,39.47317215111608],"type":"Point"},"properties":{"gid":8,"nombre":"BANCAIXA - CAIXA D'ESTALVIS DE VAL\u00c8NCIA","numpol":"3","telefono":"963875500","ruta":9,"audio":0,"escena":null,"nombreaudio":null,"geo_point_2d":{"lon":-0.37012212972130754,"lat":39.47317215111608}}},{"type":"Feature","geometry":{"coordinates":[-0.3753139851055782,39.48076001244568],"type":"Point"},"properties":{"gid":13,"nombre":"PONT DELS SERRANS","numpol":null,"telefono":"0","ruta":3,"audio":0,"escena":null,"nombreaudio":null,"geo_point_2d":{"lon":-0.3753139851055782,"lat":39.48076001244568}}},{"type":"Feature","geometry":{"coordinates":[-0.37695411756771163,39.477007793072545],"type":"Point"},"properties":{"gid":19,"nombre":"TORRE DE SANT BERTOMEU","numpol":"3","telefono":"0","ruta":5,"audio":0,"escena":null,"nombreaudio":null,"geo_point_2d":{"lon":-0.37695411756771163,"lat":39.477007793072545}}},{"type":"Feature","geometry":{"coordinates":[-0.4005879054682707,39.46683534657883],"type":"Point"},"properties":{"gid":26,"nombre":"ESGL\u00c9SIA PARROQUIAL DE LA PASSI\u00d3 DEL SENYOR","numpol":"1","telefono":"963791770","ruta":9,"audio":0,"escena":null,"nombreaudio":null,"geo_point_2d":{"lon":-0.4005879054682707,"lat":39.46683534657883}}},{"type":"Feature","geometry":{"coordinates":[-0.344831843682514,39.463751714308295],"type":"Point"},"properties":{"gid":29,"nombre":"ESGL\u00c9SIA PARROQUIAL DEL PATRIARCA SANT JOSEP","numpol":"153","telefono":"963304637","ruta":9,"audio":0,"escena":null,"nombreaudio":null,"geo_point_2d":{"lon":-0.344831843682514,"lat":39.463751714308295}}},{"type":"Feature","geometry":{"coordinates":[-0.33824689047224293,39.42252607834641],"type":"Point"},"properties":{"gid":30,"nombre":"ESGL\u00c9SIA PARROQUIAL DE MARIA, MARE DE CRIST (PINEDO)","numpol":"27","telefono":"963672476","ruta":9,"audio":0,"escena":null,"nombreaudio":null,"geo_point_2d":{"lon":-0.33824689047224293,"lat":39.42252607834641}}},{"type":"Feature","geometry":{"coordinates":[-0.39435436143329206,39.47267115031206],"type":"Point"},"properties":{"gid":65,"nombre":"MONESTIR DE SANTA CLARA - CLARISSES CAPUTXINES","numpol":"119","telefono":"963842245","ruta":9,"audio":0,"escena":null,"nombreaudio":null,"geo_point_2d":{"lon":-0.39435436143329206,"lat":39.47267115031206}}},{"type":"Feature","geometry":{"coordinates":[-0.3732297817638602,39.47701445300119],"type":"Point"},"properties":{"gid":72,"nombre":"ANTIC SEMINARI CONCILIAR - FACULTAT DE TEOLOGIA","numpol":"3","telefono":"963155800","ruta":7,"audio":0,"escena":null,"nombreaudio":null,"geo_point_2d":{"lon":-0.3732297817638602,"lat":39.47701445300119}}},{"type":"Feature","geometry":{"coordinates":[-0.3626471798992365,39.472136850591234],"type":"Point"},"properties":{"gid":73,"nombre":"ARXIU DEL REGNE DE VAL\u00c8NCIA","numpol":"22","telefono":"963184550","ruta":9,"audio":0,"escena":null,"nombreaudio":null,"geo_point_2d":{"lon":-0.3626471798992365,"lat":39.472136850591234}}},{"type":"Feature","geometry":{"coordinates":[-0.3834647311330987,39.47933750056091],"type":"Point"},"properties":{"gid":76,"nombre":"ASIL I COL\u00b7LEGI DE SANT JOAN BAPTISTA","numpol":"175","telefono":"963912365","ruta":7,"audio":0,"escena":null,"nombreaudio":null,"geo_point_2d":{"lon":-0.3834647311330987,"lat":39.47933750056091}}},{"type":"Feature","geometry":{"coordinates":[-0.36163104021061326,39.47372073475555],"type":"Point"},"properties":{"gid":77,"nombre":"F\u00c0BRICA DE TABAC","numpol":"11","telefono":"0","ruta":9,"audio":0,"escena":null,"nombreaudio":null,"geo_point_2d":{"lon":-0.36163104021061326,"lat":39.47372073475555}}},{"type":"Feature","geometry":{"coordinates":[-0.4020495759965204,39.46525294443713],"type":"Point"},"properties":{"gid":78,"nombre":"BIBLIOTECA MUNICIPAL","numpol":"1","telefono":"963525478","ruta":9,"audio":0,"escena":null,"nombreaudio":null,"geo_point_2d":{"lon":-0.4020495759965204,"lat":39.46525294443713}}},{"type":"Feature","geometry":{"coordinates":[-0.3787201820390012,39.47824383040734],"type":"Point"},"properties":{"gid":82,"nombre":"CASA DEL CARRER DE BAIX, 48","numpol":"48","telefono":"0","ruta":4,"audio":0,"escena":null,"nombreaudio":null,"geo_point_2d":{"lon":-0.3787201820390012,"lat":39.47824383040734}}},{"type":"Feature","geometry":{"coordinates":[-0.37103874723259933,39.47560368614181],"type":"Point"},"properties":{"gid":85,"nombre":"CASA DEL BAR\u00d3 DE CAMPOLIVAR","numpol":"30","telefono":"0","ruta":6,"audio":0,"escena":null,"nombreaudio":null,"geo_point_2d":{"lon":-0.37103874723259933,"lat":39.47560368614181}}},{"type":"Feature","geometry":{"coordinates":[-0.37279829071833726,39.47507025832903],"type":"Point"},"properties":{"gid":87,"nombre":"CASA DELS MARQUESOS DE TREMOLAR","numpol":"11, 13","telefono":"0","ruta":7,"audio":0,"escena":null,"nombreaudio":null,"geo_point_2d":{"lon":-0.37279829071833726,"lat":39.47507025832903}}},{"type":"Feature","geometry":{"coordinates":[-0.3810067135062162,39.47734415916744],"type":"Point"},"properties":{"gid":90,"nombre":"CASA DE LES SERVES DE MARIA","numpol":"6","telefono":"963910167","ruta":0,"audio":0,"escena":null,"nombreaudio":null,"geo_point_2d":{"lon":-0.3810067135062162,"lat":39.47734415916744}}},{"type":"Feature","geometry":{"coordinates":[-0.3568274396495326,39.46682619605854],"type":"Point"},"properties":{"gid":91,"nombre":"PARR\u00d2QUIA DE SANT ANNA","numpol":"4","telefono":"963370998","ruta":9,"audio":0,"escena":null,"nombreaudio":null,"geo_point_2d":{"lon":-0.3568274396495326,"lat":39.46682619605854}}},{"type":"Feature","geometry":{"coordinates":[-0.317955071276431,39.30990005698085],"type":"Point"},"properties":{"gid":98,"nombre":"PARR\u00d2QUIA DEL XIQUET JES\u00daS DE L'HORT (ILLA DEL PALMAR-L'ALBUFERA)","numpol":"14","telefono":"961620157","ruta":8,"audio":0,"escena":null,"nombreaudio":null,"geo_point_2d":{"lon":-0.317955071276431,"lat":39.30990005698085}}},{"type":"Feature","geometry":{"coordinates":[-0.37791362682375224,39.479742371508614],"type":"Point"},"properties":{"gid":100,"nombre":"GRAN ASSOCIACI\u00d3 DE LA MARE DE D\u00c9U DELS DESEMPARATS","numpol":"3","telefono":"963911791","ruta":7,"audio":0,"escena":null,"nombreaudio":null,"geo_point_2d":{"lon":-0.37791362682375224,"lat":39.479742371508614}}},{"type":"Feature","geometry":{"coordinates":[-0.351118985424698,39.47542395442525],"type":"Point"},"properties":{"gid":101,"nombre":"PARR\u00d2QUIA DE SANT FRANCESC XAVIER","numpol":"55","telefono":"963695858","ruta":9,"audio":0,"escena":null,"nombreaudio":null,"geo_point_2d":{"lon":-0.351118985424698,"lat":39.47542395442525}}},{"type":"Feature","geometry":{"coordinates":[-0.3768213375369591,39.43253461436016],"type":"Point"},"properties":{"gid":106,"nombre":"ESGL\u00c9SIA DEL CRIST DE L'AGONIA DEL FORN D'ALCEDO","numpol":"12","telefono":"963765037","ruta":9,"audio":0,"escena":null,"nombreaudio":null,"geo_point_2d":{"lon":-0.3768213375369591,"lat":39.43253461436016}}},{"type":"Feature","geometry":{"coordinates":[-0.37477598708736365,39.487951334796094],"type":"Point"},"properties":{"gid":117,"nombre":"ESGL\u00c9SIA PARROQUIAL DE SANT LL\u00c0TZER","numpol":"13","telefono":"963668631","ruta":3,"audio":0,"escena":null,"nombreaudio":null,"geo_point_2d":{"lon":-0.37477598708736365,"lat":39.487951334796094}}},{"type":"Feature","geometry":{"coordinates":[-0.3626341652329887,39.476295262597894],"type":"Point"},"properties":{"gid":120,"nombre":"ESGL\u00c9SIA PARROQUIAL DE SANT PASQUAL BAYL\u00d3N","numpol":"10","telefono":"963603907","ruta":9,"audio":0,"escena":null,"nombreaudio":null,"geo_point_2d":{"lon":-0.3626341652329887,"lat":39.476295262597894}}},{"type":"Feature","geometry":{"coordinates":[-0.39124802513723755,39.4922581750928],"type":"Point"},"properties":{"gid":121,"nombre":"ESGL\u00c9SIA PARROQUIAL DE SANT ROC DE BENICALAP","numpol":"2","telefono":"963490333","ruta":9,"audio":0,"escena":null,"nombreaudio":null,"geo_point_2d":{"lon":-0.39124802513723755,"lat":39.4922581750928}}},{"type":"Feature","geometry":{"coordinates":[-0.3704065332568732,39.45318999658599],"type":"Point"},"properties":{"gid":126,"nombre":"ESGL\u00c9SIA I COL\u00b7LEGI DELS SALESIANS (LA FONTETA DE SANT LLU\u00cdS)","numpol":"10","telefono":"963343705","ruta":9,"audio":0,"escena":null,"nombreaudio":null,"geo_point_2d":{"lon":-0.3704065332568732,"lat":39.45318999658599}}},{"type":"Feature","geometry":{"coordinates":[-0.36556314728093625,39.476070997724904],"type":"Point"},"properties":{"gid":127,"nombre":"PALAU I BANYS DE L'ALMIRALL","numpol":"S\/N","telefono":"0","ruta":3,"audio":0,"escena":null,"nombreaudio":null,"geo_point_2d":{"lon":-0.36556314728093625,"lat":39.476070997724904}}},{"type":"Feature","geometry":{"coordinates":[-0.3641627369309903,39.4574800299907],"type":"Point"},"properties":{"gid":128,"nombre":"PARR\u00d2QUIA DE L'EPIFANIA DEL SENYOR (CARRERA DE LA FONT D'EN CORTS)","numpol":"38","telefono":"963338685","ruta":9,"audio":0,"escena":null,"nombreaudio":null,"geo_point_2d":{"lon":-0.3641627369309903,"lat":39.4574800299907}}},{"type":"Feature","geometry":{"coordinates":[-0.33337855780282194,39.44998041381497],"type":"Point"},"properties":{"gid":129,"nombre":"PARR\u00d2QUIA DE LA MARE DE D\u00c9U DELS DESEMPARATS (NATZARET)","numpol":"47","telefono":"963671814","ruta":9,"audio":0,"escena":null,"nombreaudio":null,"geo_point_2d":{"lon":-0.33337855780282194,"lat":39.44998041381497}}},{"type":"Feature","geometry":{"coordinates":[-0.3756325374925713,39.475310366192254],"type":"Point"},"properties":{"gid":131,"nombre":"MICALET","numpol":"S\/N","telefono":"963918127","ruta":3,"audio":0,"escena":"Miguelete","nombreaudio":null,"geo_point_2d":{"lon":-0.3756325374925713,"lat":39.475310366192254}}},{"type":"Feature","geometry":{"coordinates":[-0.3304766570619312,39.46983917170912],"type":"Point"},"properties":{"gid":133,"nombre":"ESGL\u00c9SIA PARROQUIAL DE SANT RAFAEL ARC\u00c0NGEL - EL CABANYAL","numpol":"216","telefono":"0","ruta":9,"audio":0,"escena":null,"nombreaudio":null,"geo_point_2d":{"lon":-0.3304766570619312,"lat":39.46983917170912}}},{"type":"Feature","geometry":{"coordinates":[-0.3787201820390012,39.47824383040734],"type":"Point"},"properties":{"gid":134,"nombre":"CASA SENYORIAL AL CARRER DE BAIX","numpol":"48","telefono":"0","ruta":4,"audio":0,"escena":null,"nombreaudio":null,"geo_point_2d":{"lon":-0.3787201820390012,"lat":39.47824383040734}}},{"type":"Feature","geometry":{"coordinates":[-0.3660885721657188,39.46317138603976],"type":"Point"},"properties":{"gid":137,"nombre":"COL\u00b7LEGIATA DE SANT BERTOMEU AP\u00d2STOL","numpol":"60","telefono":"963337042","ruta":5,"audio":0,"escena":null,"nombreaudio":null,"geo_point_2d":{"lon":-0.3660885721657188,"lat":39.46317138603976}}},{"type":"Feature","geometry":{"coordinates":[-0.3941522540681688,39.474239096889214],"type":"Point"},"properties":{"gid":139,"nombre":"COL\u00b7LEGI ESGL\u00c9SIA DE SANT JOSEP DE LA MUNTANYA","numpol":"15","telefono":"963824335","ruta":9,"audio":0,"escena":null,"nombreaudio":null,"geo_point_2d":{"lon":-0.3941522540681688,"lat":39.474239096889214}}},{"type":"Feature","geometry":{"coordinates":[-0.3741728716487891,39.47573707858885],"type":"Point"},"properties":{"gid":143,"nombre":"CRIPTA DE LA PRES\u00d3 DE SANT VICENT","numpol":"1","telefono":"963941417","ruta":1,"audio":0,"escena":null,"nombreaudio":null,"geo_point_2d":{"lon":-0.3741728716487891,"lat":39.47573707858885}}},{"type":"Feature","geometry":{"coordinates":[-0.37540084585788114,39.475994586095],"type":"Point"},"properties":{"gid":150,"nombre":"CASA VESTUARI","numpol":"1","telefono":"0","ruta":6,"audio":37,"escena":null,"nombreaudio":"6\/37.mp3","geo_point_2d":{"lon":-0.37540084585788114,"lat":39.475994586095}}},{"type":"Feature","geometry":{"coordinates":[-0.3317576631056562,39.46325532226781],"type":"Point"},"properties":{"gid":36,"nombre":"ESGL\u00c9SIA PARROQUIAL DE LA MARE DE D\u00c9U DEL ROSARI (CANYAMELAR)","numpol":"4","telefono":"963672360","ruta":6,"audio":0,"escena":null,"nombreaudio":null,"geo_point_2d":{"lon":-0.3317576631056562,"lat":39.46325532226781}}},{"type":"Feature","geometry":{"coordinates":[-0.4073259952983346,39.45339092479941],"type":"Point"},"properties":{"gid":39,"nombre":"ESGL\u00c9SIA PARROQUIAL DE LA MARE DE D\u00c9U DELS DESEMPARATS I SANT ISIDRE","numpol":"2","telefono":"963772184","ruta":9,"audio":0,"escena":null,"nombreaudio":null,"geo_point_2d":{"lon":-0.4073259952983346,"lat":39.45339092479941}}},{"type":"Feature","geometry":{"coordinates":[-0.37424499792002364,39.46736317971602],"type":"Point"},"properties":{"gid":42,"nombre":"ESGL\u00c9SIA PARROQUIAL DE SANT ANDREU AP\u00d2STOL","numpol":"8","telefono":"963526541","ruta":9,"audio":0,"escena":null,"nombreaudio":null,"geo_point_2d":{"lon":-0.37424499792002364,"lat":39.46736317971602}}},{"type":"Feature","geometry":{"coordinates":[-0.38267825408195405,39.50296828694664],"type":"Point"},"properties":{"gid":45,"nombre":"ESGL\u00c9SIA PARROQUIAL DE SANT BERNAT M\u00c0RTIR (POBLE NOU)","numpol":"188","telefono":"963638098","ruta":9,"audio":0,"escena":null,"nombreaudio":null,"geo_point_2d":{"lon":-0.38267825408195405,"lat":39.50296828694664}}},{"type":"Feature","geometry":{"coordinates":[-0.3633964851513174,39.48292191506457],"type":"Point"},"properties":{"gid":47,"nombre":"ESGL\u00c9SIA PARROQUIAL DE SANT ISIDOR BISBE","numpol":"23","telefono":"963692102","ruta":9,"audio":0,"escena":null,"nombreaudio":null,"geo_point_2d":{"lon":-0.3633964851513174,"lat":39.48292191506457}}},{"type":"Feature","geometry":{"coordinates":[-0.3760262547260398,39.478006001323166],"type":"Point"},"properties":{"gid":48,"nombre":"PALAU DE CERVER\u00d3","numpol":"4","telefono":"963926229","ruta":5,"audio":0,"escena":null,"nombreaudio":null,"geo_point_2d":{"lon":-0.3760262547260398,"lat":39.478006001323166}}},{"type":"Feature","geometry":{"coordinates":[-0.3768053772119794,39.476551834847136],"type":"Point"},"properties":{"gid":54,"nombre":"PALAU DEL MARQU\u00c9S DE CASTELLFORT","numpol":"9 y 11","telefono":"0","ruta":9,"audio":0,"escena":null,"nombreaudio":null,"geo_point_2d":{"lon":-0.3768053772119794,"lat":39.476551834847136}}},{"type":"Feature","geometry":{"coordinates":[-0.3784722129606948,39.4765879503493],"type":"Point"},"properties":{"gid":57,"nombre":"PALAU DELS COMTES D'OLIVA (HUI DELS DE DAIA NOVA)","numpol":"33","telefono":"0","ruta":3,"audio":0,"escena":null,"nombreaudio":null,"geo_point_2d":{"lon":-0.3784722129606948,"lat":39.4765879503493}}},{"type":"Feature","geometry":{"coordinates":[-0.34400480761012076,39.468309768993464],"type":"Point"},"properties":{"gid":183,"nombre":"JARD\u00cd D'AIORA","numpol":null,"telefono":"0","ruta":8,"audio":66,"escena":null,"nombreaudio":"8\/66.mp3","geo_point_2d":{"lon":-0.34400480761012076,"lat":39.468309768993464}}},{"type":"Feature","geometry":{"coordinates":[-0.3741293604240174,39.47578744548076],"type":"Point"},"properties":{"gid":187,"nombre":"PRES\u00d3 DE SANT VICENT M\u00c0RTIR","numpol":null,"telefono":"0","ruta":1,"audio":1,"escena":null,"nombreaudio":"1\/1.mp3","geo_point_2d":{"lon":-0.3741293604240174,"lat":39.47578744548076}}},{"type":"Feature","geometry":{"coordinates":[-0.37859305875692917,39.47671704281151],"type":"Point"},"properties":{"gid":193,"nombre":"PALAU DELS COMTES D'ALPONT","numpol":"28","telefono":"0","ruta":5,"audio":22,"escena":null,"nombreaudio":"5\/22.mp3","geo_point_2d":{"lon":-0.37859305875692917,"lat":39.47671704281151}}},{"type":"Feature","geometry":{"coordinates":[-0.3731521659639589,39.473954598414764],"type":"Point"},"properties":{"gid":196,"nombre":"PALAU DELS VALERIOLA","numpol":"31","telefono":"0","ruta":5,"audio":28,"escena":null,"nombreaudio":"5\/28.mp3","geo_point_2d":{"lon":-0.3731521659639589,"lat":39.473954598414764}}},{"type":"Feature","geometry":{"coordinates":[-0.37316757701527425,39.47076584855541],"type":"Point"},"properties":{"gid":198,"nombre":"PALAU DE PENYALBA","numpol":"6","telefono":"0","ruta":6,"audio":33,"escena":null,"nombreaudio":"6\/33.mp3","geo_point_2d":{"lon":-0.37316757701527425,"lat":39.47076584855541}}},{"type":"Feature","geometry":{"coordinates":[-0.37388990360087543,39.4725749180646],"type":"Point"},"properties":{"gid":199,"nombre":"PALAU DELS BO\u00cfL D'AREN\u00d3S","numpol":"2 y 4","telefono":"0","ruta":6,"audio":35,"escena":null,"nombreaudio":"6\/35.mp3","geo_point_2d":{"lon":-0.37388990360087543,"lat":39.4725749180646}}},{"type":"Feature","geometry":{"coordinates":[-0.3786601851200452,39.478952726433015],"type":"Point"},"properties":{"gid":201,"nombre":"PALAU DE PINEDA","numpol":null,"telefono":"0","ruta":6,"audio":38,"escena":null,"nombreaudio":"6\/38.mp3","geo_point_2d":{"lon":-0.3786601851200452,"lat":39.478952726433015}}},{"type":"Feature","geometry":{"coordinates":[-0.37902299022229696,39.480744643070295],"type":"Point"},"properties":{"gid":209,"nombre":"MUSEU BENLLIURE","numpol":"23","telefono":"963911662","ruta":7,"audio":50,"escena":null,"nombreaudio":"7\/50.mp3","geo_point_2d":{"lon":-0.37902299022229696,"lat":39.480744643070295}}},{"type":"Feature","geometry":{"coordinates":[-0.37013261650844737,39.474381451065774],"type":"Point"},"properties":{"gid":152,"nombre":"PALAU DE CERVELL\u00d3","numpol":"3","telefono":"963525478","ruta":6,"audio":31,"escena":null,"nombreaudio":"6\/31.mp3","geo_point_2d":{"lon":-0.37013261650844737,"lat":39.474381451065774}}},{"type":"Feature","geometry":{"coordinates":[-0.37400799327622053,39.475957579757655],"type":"Point"},"properties":{"gid":163,"nombre":"PALAU DEL MARQU\u00c9S DE CAMPO","numpol":"3","telefono":"963525478","ruta":7,"audio":47,"escena":null,"nombreaudio":"7\/47.mp3","geo_point_2d":{"lon":-0.37400799327622053,"lat":39.475957579757655}}},{"type":"Feature","geometry":{"coordinates":[-0.3863103010833792,39.47550103066444],"type":"Point"},"properties":{"gid":166,"nombre":"JARD\u00cd BOT\u00c0NIC","numpol":"80","telefono":"963156800","ruta":6,"audio":41,"escena":null,"nombreaudio":"6\/41.mp3","geo_point_2d":{"lon":-0.3863103010833792,"lat":39.47550103066444}}},{"type":"Feature","geometry":{"coordinates":[-0.40705606111603254,39.47809312250169],"type":"Point"},"properties":{"gid":170,"nombre":"BIOPARC","numpol":"3","telefono":"902250340","ruta":12,"audio":79,"escena":null,"nombreaudio":"12\/79.mp3","geo_point_2d":{"lon":-0.40705606111603254,"lat":39.47809312250169}}},{"type":"Feature","geometry":{"coordinates":[-0.37723223723928856,39.46683976384089],"type":"Point"},"properties":{"gid":217,"nombre":"ESTACI\u00d3 DEL NORD","numpol":"24","telefono":"0","ruta":8,"audio":58,"escena":null,"nombreaudio":"8\/58.mp3","geo_point_2d":{"lon":-0.37723223723928856,"lat":39.46683976384089}}},{"type":"Feature","geometry":{"coordinates":[-0.3738825636970963,39.477100477286044],"type":"Point"},"properties":{"gid":16,"nombre":"REIAL ESGL\u00c9SIA DEL SANT\u00cdSSIM CRIST DEL SALVADOR O ESGL\u00c9SIA DEL SALVADOR","numpol":"1","telefono":"963921458","ruta":3,"audio":0,"escena":null,"nombreaudio":null,"geo_point_2d":{"lon":-0.3738825636970963,"lat":39.477100477286044}}},{"type":"Feature","geometry":{"coordinates":[-0.38109926095972396,39.47690706885067],"type":"Point"},"properties":{"gid":34,"nombre":"ESGL\u00c9SIA PARROQUIAL DE LA MARE DEL D\u00c9U DEL PUIG","numpol":"1","telefono":"963911736","ruta":7,"audio":0,"escena":null,"nombreaudio":null,"geo_point_2d":{"lon":-0.38109926095972396,"lat":39.47690706885067}}},{"type":"Feature","geometry":{"coordinates":[-0.3537071583917094,39.46637896663518],"type":"Point"},"properties":{"gid":115,"nombre":"ESGL\u00c9SIA PARROQUIAL DE SANT JOAN DE LA RIBERA","numpol":"69","telefono":"963690152","ruta":9,"audio":0,"escena":null,"nombreaudio":null,"geo_point_2d":{"lon":-0.3537071583917094,"lat":39.46637896663518}}},{"type":"Feature","geometry":{"coordinates":[-0.3654761445611444,39.47720302818242],"type":"Point"},"properties":{"gid":173,"nombre":"PALAUET I JARDINS DE MONFORTE","numpol":"S\/N","telefono":"963525478","ruta":8,"audio":63,"escena":null,"nombreaudio":"8\/63.mp3","geo_point_2d":{"lon":-0.3654761445611444,"lat":39.47720302818242}}},{"type":"Feature","geometry":{"coordinates":[-0.36466765492590547,39.479478461341515],"type":"Point"},"properties":{"gid":174,"nombre":"RECTORAT DE LA UNIVERSITAT DE VAL\u00c8NCIA (ANTIGA FACULTAT DE CI\u00c8NCIES)","numpol":"13","telefono":"0","ruta":9,"audio":67,"escena":null,"nombreaudio":"9\/67.mp3","geo_point_2d":{"lon":-0.36466765492590547,"lat":39.479478461341515}}},{"type":"Feature","geometry":{"coordinates":[-0.40941241225310343,39.476085803568964],"type":"Point"},"properties":{"gid":176,"nombre":"PARC DE CAP\u00c7ALERA","numpol":null,"telefono":"0","ruta":12,"audio":80,"escena":null,"nombreaudio":"12\/80.mp3","geo_point_2d":{"lon":-0.40941241225310343,"lat":39.476085803568964}}},{"type":"Feature","geometry":{"coordinates":[-0.32606432943842883,39.482734926764124],"type":"Point"},"properties":{"gid":179,"nombre":"CASA MUSEU BLASCO IB\u00c1\u00d1EZ","numpol":"159","telefono":"963525478","ruta":11,"audio":77,"escena":null,"nombreaudio":"11\/77.mp3","geo_point_2d":{"lon":-0.32606432943842883,"lat":39.482734926764124}}},{"type":"Feature","geometry":{"coordinates":[-0.3712850954701632,39.47661499598925],"type":"Point"},"properties":{"gid":185,"nombre":"PALAU I ESGL\u00c9SIA DEL TEMPLE","numpol":"2","telefono":"963918837","ruta":6,"audio":30,"escena":null,"nombreaudio":"6\/30.mp3","geo_point_2d":{"lon":-0.3712850954701632,"lat":39.47661499598925}}},{"type":"Feature","geometry":{"coordinates":[-0.37899494446702714,39.477910849714426],"type":"Point"},"properties":{"gid":2,"nombre":"PALAU DELS MART\u00cdNEZ DE RAGA","numpol":"25 y 27","telefono":"0","ruta":7,"audio":0,"escena":null,"nombreaudio":null,"geo_point_2d":{"lon":-0.37899494446702714,"lat":39.477910849714426}}},{"type":"Feature","geometry":{"coordinates":[-0.37933613199615396,39.47647471356445],"type":"Point"},"properties":{"gid":3,"nombre":"PALAU DELS QUEIXAL O DELS TR\u00c9NOR","numpol":"43","telefono":"0","ruta":3,"audio":0,"escena":null,"nombreaudio":null,"geo_point_2d":{"lon":-0.37933613199615396,"lat":39.47647471356445}}},{"type":"Feature","geometry":{"coordinates":[-0.36266351364064775,39.47345484111369],"type":"Point"},"properties":{"gid":7,"nombre":"PALAU MUNICIPAL DE L'EXPOSICI\u00d3","numpol":"1","telefono":"963525478","ruta":9,"audio":0,"escena":null,"nombreaudio":null,"geo_point_2d":{"lon":-0.36266351364064775,"lat":39.47345484111369}}},{"type":"Feature","geometry":{"coordinates":[-0.37072101173655325,39.47326896099321],"type":"Point"},"properties":{"gid":9,"nombre":"CASA NATAL\u00cdCIA DE SANT VICENT FERRER - EL POUET","numpol":"1","telefono":"963528481","ruta":7,"audio":0,"escena":null,"nombreaudio":null,"geo_point_2d":{"lon":-0.37072101173655325,"lat":39.47326896099321}}},{"type":"Feature","geometry":{"coordinates":[-0.37588805881016396,39.454296523715115],"type":"Point"},"properties":{"gid":10,"nombre":"PARR\u00d2QUIA DE SANTA CEC\u00cdLIA","numpol":"24","telefono":"0","ruta":9,"audio":0,"escena":null,"nombreaudio":null,"geo_point_2d":{"lon":-0.37588805881016396,"lat":39.454296523715115}}},{"type":"Feature","geometry":{"coordinates":[-0.3787033540225543,39.47749428334232],"type":"Point"},"properties":{"gid":12,"nombre":"PORTAL DE LA VALLDIGNA","numpol":null,"telefono":"0","ruta":3,"audio":0,"escena":null,"nombreaudio":null,"geo_point_2d":{"lon":-0.3787033540225543,"lat":39.47749428334232}}},{"type":"Feature","geometry":{"coordinates":[-0.36363210534111307,39.47026160011012],"type":"Point"},"properties":{"gid":14,"nombre":"PONT DE LA MAR","numpol":null,"telefono":"0","ruta":4,"audio":0,"escena":null,"nombreaudio":null,"geo_point_2d":{"lon":-0.36363210534111307,"lat":39.47026160011012}}},{"type":"Feature","geometry":{"coordinates":[-0.3732297817638602,39.47701445300119],"type":"Point"},"properties":{"gid":18,"nombre":"ANTIC SEMINARI CONCILIAR FACULTAT DE TEOLOGIA","numpol":"3","telefono":"0","ruta":7,"audio":0,"escena":null,"nombreaudio":null,"geo_point_2d":{"lon":-0.3732297817638602,"lat":39.47701445300119}}},{"type":"Feature","geometry":{"coordinates":[-0.3793653741031475,39.47658131553629],"type":"Point"},"properties":{"gid":21,"nombre":"TORRE DE LA POSADA DE L'\u00c0NGEL O TORRE DE L'\u00c0NGEL","numpol":null,"telefono":"0","ruta":2,"audio":0,"escena":null,"nombreaudio":null,"geo_point_2d":{"lon":-0.3793653741031475,"lat":39.47658131553629}}},{"type":"Feature","geometry":{"coordinates":[-0.36308472589036817,39.46518887153825],"type":"Point"},"properties":{"gid":24,"nombre":"ESGL\u00c9SIA PARROQUIAL DE L'\u00c0NGEL CUSTODI","numpol":"37","telefono":"963741843","ruta":9,"audio":0,"escena":null,"nombreaudio":null,"geo_point_2d":{"lon":-0.36308472589036817,"lat":39.46518887153825}}},{"type":"Feature","geometry":{"coordinates":[-0.4084313336308517,39.46489989770689],"type":"Point"},"properties":{"gid":27,"nombre":"ESGL\u00c9SIA PARROQUIAL DE LA MARE DE D\u00c9U DE LA FONTSANTA","numpol":"1","telefono":"963790619","ruta":9,"audio":0,"escena":null,"nombreaudio":null,"geo_point_2d":{"lon":-0.4084313336308517,"lat":39.46489989770689}}},{"type":"Feature","geometry":{"coordinates":[-0.39461825455991256,39.4754908640253],"type":"Point"},"properties":{"gid":62,"nombre":"ESCORXADOR MUNICIPAL","numpol":"42","telefono":"0","ruta":8,"audio":0,"escena":null,"nombreaudio":null,"geo_point_2d":{"lon":-0.39461825455991256,"lat":39.4754908640253}}},{"type":"Feature","geometry":{"coordinates":[-0.388749283489561,39.46779842250637],"type":"Point"},"properties":{"gid":63,"nombre":"MERCAT D'ABASTOS","numpol":"18","telefono":"0","ruta":9,"audio":0,"escena":null,"nombreaudio":null,"geo_point_2d":{"lon":-0.388749283489561,"lat":39.46779842250637}}},{"type":"Feature","geometry":{"coordinates":[-0.3740849355897308,39.47573238889933],"type":"Point"},"properties":{"gid":66,"nombre":"MONUMENT A L'ARQUEBISBE OLAECHEA","numpol":null,"telefono":"0","ruta":9,"audio":0,"escena":null,"nombreaudio":null,"geo_point_2d":{"lon":-0.3740849355897308,"lat":39.47573238889933}}},{"type":"Feature","geometry":{"coordinates":[-0.35918249301357175,39.45883654674115],"type":"Point"},"properties":{"gid":68,"nombre":"MUSEU FALLER","numpol":"4","telefono":"963525478","ruta":9,"audio":0,"escena":null,"nombreaudio":null,"geo_point_2d":{"lon":-0.35918249301357175,"lat":39.45883654674115}}},{"type":"Feature","geometry":{"coordinates":[-0.33128175520221775,39.46303569440949],"type":"Point"},"properties":{"gid":69,"nombre":"MUSEU DE LA SETMANA SANTA MARINERA","numpol":"3","telefono":"963525478","ruta":8,"audio":0,"escena":null,"nombreaudio":null,"geo_point_2d":{"lon":-0.33128175520221775,"lat":39.46303569440949}}},{"type":"Feature","geometry":{"coordinates":[-0.37422674224360997,39.47542064779301],"type":"Point"},"properties":{"gid":70,"nombre":"PALAU ARQUEBISBAL","numpol":"2","telefono":"963829700","ruta":9,"audio":0,"escena":null,"nombreaudio":null,"geo_point_2d":{"lon":-0.37422674224360997,"lat":39.47542064779301}}},{"type":"Feature","geometry":{"coordinates":[-0.37275135900275014,39.47753939526829],"type":"Point"},"properties":{"gid":71,"nombre":"PALAU D'ARIZA","numpol":"3","telefono":"0","ruta":8,"audio":0,"escena":null,"nombreaudio":null,"geo_point_2d":{"lon":-0.37275135900275014,"lat":39.47753939526829}}},{"type":"Feature","geometry":{"coordinates":[-0.3742967545685616,39.48185114039868],"type":"Point"},"properties":{"gid":74,"nombre":"ASIL D'ANCIANS DESEMPARATS","numpol":"1","telefono":"963479250","ruta":8,"audio":0,"escena":null,"nombreaudio":null,"geo_point_2d":{"lon":-0.3742967545685616,"lat":39.48185114039868}}},{"type":"Feature","geometry":{"coordinates":[-0.3747493148194605,39.48190713109695],"type":"Point"},"properties":{"gid":75,"nombre":"ASIL I ESGL\u00c9SIA DE SANTA M\u00d2NICA","numpol":"1","telefono":"963472912","ruta":5,"audio":0,"escena":null,"nombreaudio":null,"geo_point_2d":{"lon":-0.3747493148194605,"lat":39.48190713109695}}},{"type":"Feature","geometry":{"coordinates":[-0.3780614904745287,39.47663297820952],"type":"Point"},"properties":{"gid":79,"nombre":"CARRER DELS CAVALLERS","numpol":"14 - 16 y 18","telefono":"0","ruta":3,"audio":0,"escena":null,"nombreaudio":null,"geo_point_2d":{"lon":-0.3780614904745287,"lat":39.47663297820952}}},{"type":"Feature","geometry":{"coordinates":[-0.3772605607854714,39.477355790728325],"type":"Point"},"properties":{"gid":83,"nombre":"CASA DEL CARRER DE LA CONC\u00d2RDIA, 6","numpol":"6","telefono":"0","ruta":9,"audio":0,"escena":null,"nombreaudio":null,"geo_point_2d":{"lon":-0.3772605607854714,"lat":39.477355790728325}}},{"type":"Feature","geometry":{"coordinates":[-0.377173745045796,39.4766727604443],"type":"Point"},"properties":{"gid":84,"nombre":"CASA DEL CARRER DELS CAVALLERS, 8 (CANTONADA AMB EL CARRER DELS BORGES)","numpol":"8","telefono":"0","ruta":8,"audio":0,"escena":null,"nombreaudio":null,"geo_point_2d":{"lon":-0.377173745045796,"lat":39.4766727604443}}},{"type":"Feature","geometry":{"coordinates":[-0.3792916620372267,39.47772061139805],"type":"Point"},"properties":{"gid":86,"nombre":"CASA DELS MARQUESOS DE GONZ\u00c1LEZ DE QUIR\u00d3S","numpol":"25","telefono":"0","ruta":7,"audio":0,"escena":null,"nombreaudio":null,"geo_point_2d":{"lon":-0.3792916620372267,"lat":39.47772061139805}}},{"type":"Feature","geometry":{"coordinates":[-0.331750758403191,39.46019068957623],"type":"Point"},"properties":{"gid":94,"nombre":"EDIFICI DEL RELLOTGE (PORT)","numpol":"S\/N","telefono":"963939400","ruta":9,"audio":0,"escena":null,"nombreaudio":null,"geo_point_2d":{"lon":-0.331750758403191,"lat":39.46019068957623}}},{"type":"Feature","geometry":{"coordinates":[-0.3831805420710788,39.47060152808316],"type":"Point"},"properties":{"gid":96,"nombre":"ERMITA DE SANTA LL\u00daCIA","numpol":"15","telefono":"963920012","ruta":7,"audio":0,"escena":null,"nombreaudio":null,"geo_point_2d":{"lon":-0.3831805420710788,"lat":39.47060152808316}}},{"type":"Feature","geometry":{"coordinates":[-0.3735560394177723,39.476504195244196],"type":"Point"},"properties":{"gid":99,"nombre":"FONT DE LA PLA\u00c7A DE SANT LLU\u00cdS BERTRAN","numpol":null,"telefono":"0","ruta":9,"audio":0,"escena":null,"nombreaudio":null,"geo_point_2d":{"lon":-0.3735560394177723,"lat":39.476504195244196}}},{"type":"Feature","geometry":{"coordinates":[-0.4050384523484823,39.49666362431868],"type":"Point"},"properties":{"gid":103,"nombre":"PARR\u00d2QUIA DE SANT JAUME DE BENIFERRI","numpol":"4","telefono":"963407426","ruta":7,"audio":0,"escena":null,"nombreaudio":null,"geo_point_2d":{"lon":-0.4050384523484823,"lat":39.49666362431868}}},{"type":"Feature","geometry":{"coordinates":[-0.37114562953949276,39.47564231941946],"type":"Point"},"properties":{"gid":105,"nombre":"ESGL\u00c9SIA DE LES MARES REPARADORES","numpol":"23","telefono":"963918434","ruta":9,"audio":0,"escena":null,"nombreaudio":null,"geo_point_2d":{"lon":-0.37114562953949276,"lat":39.47564231941946}}},{"type":"Feature","geometry":{"coordinates":[-0.37264937543814297,39.47456726607053],"type":"Point"},"properties":{"gid":107,"nombre":"ESGL\u00c9SIA DEL MIRACLE I HOSPITAL DE SACERDOTS POBRES","numpol":"6, 4","telefono":"0","ruta":3,"audio":0,"escena":null,"nombreaudio":null,"geo_point_2d":{"lon":-0.37264937543814297,"lat":39.47456726607053}}},{"type":"Feature","geometry":{"coordinates":[-0.37171543766424253,39.48101559333338],"type":"Point"},"properties":{"gid":112,"nombre":"ESGL\u00c9SIA DE SANT CRIST\u00d2FOL","numpol":"2","telefono":"963605885","ruta":9,"audio":0,"escena":null,"nombreaudio":null,"geo_point_2d":{"lon":-0.37171543766424253,"lat":39.48101559333338}}},{"type":"Feature","geometry":{"coordinates":[-0.3730569354317957,39.45613473667365],"type":"Point"},"properties":{"gid":118,"nombre":"ESGL\u00c9SIA PARROQUIAL DE SANT MATEU","numpol":"22","telefono":"963330611","ruta":9,"audio":0,"escena":null,"nombreaudio":null,"geo_point_2d":{"lon":-0.3730569354317957,"lat":39.45613473667365}}},{"type":"Feature","geometry":{"coordinates":[-0.38729941797813694,39.47515373380739],"type":"Point"},"properties":{"gid":119,"nombre":"ESGL\u00c9SIA PARROQUIAL DE SANT MIQUEL I SANT SEBASTI\u00c0","numpol":"97","telefono":"963910057","ruta":6,"audio":0,"escena":null,"nombreaudio":null,"geo_point_2d":{"lon":-0.38729941797813694,"lat":39.47515373380739}}},{"type":"Feature","geometry":{"coordinates":[-0.3319283187148441,39.47263552373179],"type":"Point"},"properties":{"gid":33,"nombre":"ESGL\u00c9SIA PARROQUIAL DE LA MARE DE D\u00c9U DELS \u00c0NGELS (EL CABANYAL)","numpol":"2","telefono":"963711060","ruta":6,"audio":0,"escena":null,"nombreaudio":null,"geo_point_2d":{"lon":-0.3319283187148441,"lat":39.47263552373179}}},{"type":"Feature","geometry":{"coordinates":[-0.3634286371567315,39.42931600090908],"type":"Point"},"properties":{"gid":124,"nombre":"ESGL\u00c9SIA PARROQUIAL DE LA MARE DE D\u00c9U DEL ROSARI (LEPANT-CASTELLAR)","numpol":"17","telefono":"963962018","ruta":7,"audio":0,"escena":null,"nombreaudio":null,"geo_point_2d":{"lon":-0.3634286371567315,"lat":39.42931600090908}}},{"type":"Feature","geometry":{"coordinates":[-0.37812595814644595,39.47897301385829],"type":"Point"},"properties":{"gid":135,"nombre":"CASA SENYORIAL AL CARRER DE ROTEROS","numpol":"25","telefono":"0","ruta":6,"audio":0,"escena":null,"nombreaudio":null,"geo_point_2d":{"lon":-0.37812595814644595,"lat":39.47897301385829}}},{"type":"Feature","geometry":{"coordinates":[-0.3835455824624548,39.473666060153626],"type":"Point"},"properties":{"gid":140,"nombre":"CONVENT DE L'ENCARNACI\u00d3","numpol":"41","telefono":"963515758","ruta":9,"audio":0,"escena":null,"nombreaudio":null,"geo_point_2d":{"lon":-0.3835455824624548,"lat":39.473666060153626}}},{"type":"Feature","geometry":{"coordinates":[-0.3836148908426371,39.476030706773024],"type":"Point"},"properties":{"gid":141,"nombre":"CONVENT DE SANTA \u00daRSULA","numpol":"2","telefono":"963910130","ruta":5,"audio":0,"escena":null,"nombreaudio":null,"geo_point_2d":{"lon":-0.3836148908426371,"lat":39.476030706773024}}},{"type":"Feature","geometry":{"coordinates":[-0.37428721883414495,39.47592028763205],"type":"Point"},"properties":{"gid":145,"nombre":"EDIFICI DE LA PLA\u00c7A DE L'ALMOINA, 4","numpol":"4","telefono":"0","ruta":9,"audio":0,"escena":null,"nombreaudio":null,"geo_point_2d":{"lon":-0.37428721883414495,"lat":39.47592028763205}}},{"type":"Feature","geometry":{"coordinates":[-0.37273476139848477,39.47432840427719],"type":"Point"},"properties":{"gid":147,"nombre":"ESGL\u00c9SIA DE SANT JOAN DE L'HOSPITAL","numpol":"5","telefono":"963922965","ruta":3,"audio":8,"escena":null,"nombreaudio":"3\/8.mp3","geo_point_2d":{"lon":-0.37273476139848477,"lat":39.47432840427719}}},{"type":"Feature","geometry":{"coordinates":[-0.3744480446264623,39.47624093884459],"type":"Point"},"properties":{"gid":149,"nombre":"L'ALMOINA. CENTRE ARQUEOL\u00d2GIC","numpol":"S\/N","telefono":"962084173","ruta":1,"audio":2,"escena":null,"nombreaudio":"1\/2.mp3","geo_point_2d":{"lon":-0.3744480446264623,"lat":39.47624093884459}}},{"type":"Feature","geometry":{"coordinates":[-0.36605922149518777,39.494869956682216],"type":"Point"},"properties":{"gid":37,"nombre":"ESGL\u00c9SIA PARROQUIAL DE LA MARE DE D\u00c9U DEL SAGRAT COR","numpol":"28","telefono":"963666465","ruta":5,"audio":0,"escena":null,"nombreaudio":null,"geo_point_2d":{"lon":-0.36605922149518777,"lat":39.494869956682216}}},{"type":"Feature","geometry":{"coordinates":[-0.3592696892031955,39.45923203096975],"type":"Point"},"properties":{"gid":40,"nombre":"ESGL\u00c9SIA PARROQUIAL DE LA MARE DE D\u00c9U (MONTOLIVET)","numpol":"6","telefono":"963746542","ruta":6,"audio":0,"escena":null,"nombreaudio":null,"geo_point_2d":{"lon":-0.3592696892031955,"lat":39.45923203096975}}},{"type":"Feature","geometry":{"coordinates":[-0.3801970228823865,39.46867236619487],"type":"Point"},"properties":{"gid":41,"nombre":"ESGL\u00c9SIA PARROQUIAL DE SANT AGUST\u00cd","numpol":"5","telefono":"963512480","ruta":3,"audio":0,"escena":null,"nombreaudio":null,"geo_point_2d":{"lon":-0.3801970228823865,"lat":39.46867236619487}}},{"type":"Feature","geometry":{"coordinates":[-0.37638627661183427,39.47666723348957],"type":"Point"},"properties":{"gid":50,"nombre":"PALAU DE LA GENERALITAT","numpol":"2","telefono":"963863461","ruta":3,"audio":0,"escena":null,"nombreaudio":null,"geo_point_2d":{"lon":-0.37638627661183427,"lat":39.47666723348957}}},{"type":"Feature","geometry":{"coordinates":[-0.3755691149521854,39.477639741682125],"type":"Point"},"properties":{"gid":51,"nombre":"PALAU DE LA REIAL MESTRAN\u00c7A DE CAVALLERIA","numpol":"1","telefono":"963921270","ruta":5,"audio":0,"escena":null,"nombreaudio":null,"geo_point_2d":{"lon":-0.3755691149521854,"lat":39.477639741682125}}},{"type":"Feature","geometry":{"coordinates":[-0.3726945293606167,39.47493944715987],"type":"Point"},"properties":{"gid":56,"nombre":"PALAU DELS COMTES D'ALMANSA","numpol":"8, 10","telefono":"0","ruta":6,"audio":0,"escena":null,"nombreaudio":null,"geo_point_2d":{"lon":-0.3726945293606167,"lat":39.47493944715987}}},{"type":"Feature","geometry":{"coordinates":[-0.3796061498127158,39.476512334320674],"type":"Point"},"properties":{"gid":59,"nombre":"PALAU DELS FERN\u00c1NDEZ DE C\u00d3RDOVA","numpol":"36","telefono":"0","ruta":3,"audio":0,"escena":null,"nombreaudio":null,"geo_point_2d":{"lon":-0.3796061498127158,"lat":39.476512334320674}}},{"type":"Feature","geometry":{"coordinates":[-0.3761470429464342,39.466644096754926],"type":"Point"},"properties":{"gid":186,"nombre":"PLA\u00c7A DE BOUS","numpol":"28","telefono":"963519315","ruta":7,"audio":52,"escena":null,"nombreaudio":"7\/52.mp3","geo_point_2d":{"lon":-0.3761470429464342,"lat":39.466644096754926}}},{"type":"Feature","geometry":{"coordinates":[-0.3817371980795588,39.47037370280495],"type":"Point"},"properties":{"gid":191,"nombre":"ANTIC HOSPITAL GENERAL","numpol":"11","telefono":"963510939","ruta":4,"audio":19,"escena":null,"nombreaudio":"4\/19.mp3","geo_point_2d":{"lon":-0.3817371980795588,"lat":39.47037370280495}}},{"type":"Feature","geometry":{"coordinates":[-0.37672464774012016,39.4791072354375],"type":"Point"},"properties":{"gid":192,"nombre":"CASA DE LES ROQUES","numpol":"3","telefono":"963153156","ruta":5,"audio":21,"escena":null,"nombreaudio":"5\/21.mp3","geo_point_2d":{"lon":-0.37672464774012016,"lat":39.4791072354375}}},{"type":"Feature","geometry":{"coordinates":[-0.3789983192144767,39.47614061610826],"type":"Point"},"properties":{"gid":194,"nombre":"ESGL\u00c9SIA PARROQUIAL DE SANT NICOLAU","numpol":"35","telefono":"963913317","ruta":5,"audio":23,"escena":null,"nombreaudio":"5\/23.mp3","geo_point_2d":{"lon":-0.3789983192144767,"lat":39.47614061610826}}},{"type":"Feature","geometry":{"coordinates":[-0.3732457401428192,39.47610079590193],"type":"Point"},"properties":{"gid":195,"nombre":"ESGL\u00c9SIA PARROQUIAL DE SANT ESTEVE","numpol":"5","telefono":"963918276","ruta":5,"audio":26,"escena":null,"nombreaudio":"5\/26.mp3","geo_point_2d":{"lon":-0.3732457401428192,"lat":39.47610079590193}}},{"type":"Feature","geometry":{"coordinates":[-0.37661849533084435,39.47358247591085],"type":"Point"},"properties":{"gid":206,"nombre":"PLA\u00c7A REDONA","numpol":null,"telefono":"0","ruta":7,"audio":46,"escena":null,"nombreaudio":"7\/46.mp3","geo_point_2d":{"lon":-0.37661849533084435,"lat":39.47358247591085}}},{"type":"Feature","geometry":{"coordinates":[-0.37482057258456,39.47626251063761],"type":"Point"},"properties":{"gid":215,"nombre":"BAS\u00cdLICA","numpol":"54","telefono":"963517750","ruta":5,"audio":25,"escena":null,"nombreaudio":"5\/25.mp3","geo_point_2d":{"lon":-0.37482057258456,"lat":39.47626251063761}}},{"type":"Feature","geometry":{"coordinates":[-0.3770089619388928,39.469790407593976],"type":"Point"},"properties":{"gid":153,"nombre":"CASA CONSISTORIAL I ENTORN URBAN\u00cdSTIC - I","numpol":"1","telefono":"0","ruta":8,"audio":57,"escena":null,"nombreaudio":"8\/57.mp3","geo_point_2d":{"lon":-0.3770089619388928,"lat":39.469790407593976}}},{"type":"Feature","geometry":{"coordinates":[-0.3770089619388928,39.469790407593976],"type":"Point"},"properties":{"gid":154,"nombre":"CASA CONSISTORIAL I ENTORN URBAN\u00cdSTIC - II","numpol":"1","telefono":"0","ruta":8,"audio":57,"escena":null,"nombreaudio":"8\/57.mp3","geo_point_2d":{"lon":-0.3770089619388928,"lat":39.469790407593976}}},{"type":"Feature","geometry":{"coordinates":[-0.3732791083218744,39.47243498874949],"type":"Point"},"properties":{"gid":158,"nombre":"REIAL COL\u00b7LEGI DEL CORPUS CHRISTI (PATRIARCA)","numpol":"1","telefono":"963514176","ruta":4,"audio":16,"escena":null,"nombreaudio":"4\/16.mp3","geo_point_2d":{"lon":-0.3732791083218744,"lat":39.47243498874949}}},{"type":"Feature","geometry":{"coordinates":[-0.3619951132217247,39.47349429001613],"type":"Point"},"properties":{"gid":159,"nombre":"ASIL DE LACT\u00c0NCIA","numpol":null,"telefono":"0","ruta":8,"audio":62,"escena":null,"nombreaudio":"8\/62.mp3","geo_point_2d":{"lon":-0.3619951132217247,"lat":39.47349429001613}}},{"type":"Feature","geometry":{"coordinates":[-0.37840088127179805,39.47440646622334],"type":"Point"},"properties":{"gid":160,"nombre":"LLOTJA","numpol":"S\/N","telefono":"963525478","ruta":3,"audio":10,"escena":"Lonja","nombreaudio":"3\/10.mp3","geo_point_2d":{"lon":-0.37840088127179805,"lat":39.47440646622334}}},{"type":"Feature","geometry":{"coordinates":[-0.3839431577365817,39.47571153086644],"type":"Point"},"properties":{"gid":161,"nombre":"TORRES DE QUART","numpol":"1","telefono":"0","ruta":3,"audio":11,"escena":null,"nombreaudio":"3\/11.mp3","geo_point_2d":{"lon":-0.3839431577365817,"lat":39.47571153086644}}},{"type":"Feature","geometry":{"coordinates":[-0.38265096632095097,39.47979041907869],"type":"Point"},"properties":{"gid":162,"nombre":"IVAM","numpol":"118","telefono":"963863000","ruta":10,"audio":70,"escena":null,"nombreaudio":"10\/70.mp3","geo_point_2d":{"lon":-0.38265096632095097,"lat":39.47979041907869}}},{"type":"Feature","geometry":{"coordinates":[-0.3698992162165883,39.47019076801601],"type":"Point"},"properties":{"gid":168,"nombre":"CASA DELS DRACS","numpol":"6","telefono":"0","ruta":8,"audio":60,"escena":null,"nombreaudio":"8\/60.mp3","geo_point_2d":{"lon":-0.3698992162165883,"lat":39.47019076801601}}},{"type":"Feature","geometry":{"coordinates":[-0.37972448620015986,39.46806343804923],"type":"Point"},"properties":{"gid":169,"nombre":"EDIFICI ALONSO","numpol":"71-73","telefono":"0","ruta":9,"audio":68,"escena":null,"nombreaudio":"9\/68.mp3","geo_point_2d":{"lon":-0.37972448620015986,"lat":39.46806343804923}}},{"type":"Feature","geometry":{"coordinates":[-0.3738686161089758,39.476538286822986],"type":"Point"},"properties":{"gid":216,"nombre":"L'ALMOD\u00cd","numpol":"1","telefono":"963525478","ruta":3,"audio":6,"escena":null,"nombreaudio":"3\/6.mp3","geo_point_2d":{"lon":-0.3738686161089758,"lat":39.476538286822986}}},{"type":"Feature","geometry":{"coordinates":[-0.36054478155660896,39.46614657823622],"type":"Point"},"properties":{"gid":223,"nombre":"PALAU DE LA M\u00daSICA","numpol":null,"telefono":"0","ruta":10,"audio":72,"escena":null,"nombreaudio":"10\/72.mp3","geo_point_2d":{"lon":-0.36054478155660896,"lat":39.46614657823622}}},{"type":"Feature","geometry":{"coordinates":[-0.4018917850252541,39.49629385265961],"type":"Point"},"properties":{"gid":225,"nombre":"PALAU DE CONGRESSOS","numpol":null,"telefono":"0","ruta":10,"audio":74,"escena":null,"nombreaudio":"10\/74.mp3","geo_point_2d":{"lon":-0.4018917850252541,"lat":39.49629385265961}}},{"type":"Feature","geometry":{"coordinates":[-0.37814872792499166,39.47670890868035],"type":"Point"},"properties":{"gid":1,"nombre":"PALAU DELS\u00a0MARQUESOS\u00a0DE\u00a0MALFERIT O DELS COMTES DE BRIZUELA","numpol":"22","telefono":"0","ruta":5,"audio":0,"escena":null,"nombreaudio":null,"geo_point_2d":{"lon":-0.37814872792499166,"lat":39.47670890868035}}},{"type":"Feature","geometry":{"coordinates":[-0.3257006285868253,39.47366382320127],"type":"Point"},"properties":{"gid":32,"nombre":"ESGL\u00c9SIA PARROQUIAL DE LA MARE DE D\u00c9U DE LA BONA GUIA","numpol":"235","telefono":"963712705","ruta":9,"audio":0,"escena":null,"nombreaudio":null,"geo_point_2d":{"lon":-0.3257006285868253,"lat":39.47366382320127}}},{"type":"Feature","geometry":{"coordinates":[-0.39007056464881884,39.481653667565745],"type":"Point"},"properties":{"gid":61,"nombre":"INSTITUT VALENCI\u00c0 D'ONCOLOGIA - IVO","numpol":"9 y 19","telefono":"961114000","ruta":9,"audio":0,"escena":null,"nombreaudio":null,"geo_point_2d":{"lon":-0.39007056464881884,"lat":39.481653667565745}}},{"type":"Feature","geometry":{"coordinates":[-0.38217603177151843,39.463610352622034],"type":"Point"},"properties":{"gid":132,"nombre":"ESGL\u00c9SIA DE SANT VICENT DE LA ROQUETA (ACTUAL ESGL\u00c9SIA PARROQUIAL DE CRIST REI)","numpol":"134, 136","telefono":"963411692","ruta":3,"audio":0,"escena":null,"nombreaudio":null,"geo_point_2d":{"lon":-0.38217603177151843,"lat":39.463610352622034}}},{"type":"Feature","geometry":{"coordinates":[-0.3751286059976486,39.4756357375792],"type":"Point"},"properties":{"gid":151,"nombre":"CATEDRAL","numpol":"S\/N","telefono":"963918127","ruta":3,"audio":5,"escena":"Catedral","nombreaudio":"3\/5.mp3","geo_point_2d":{"lon":-0.3751286059976486,"lat":39.4756357375792}}},{"type":"Feature","geometry":{"coordinates":[-0.36599648415263764,39.473131423689225],"type":"Point"},"properties":{"gid":175,"nombre":"PONT DE L'EXPOSICI\u00d3","numpol":"10","telefono":"0","ruta":10,"audio":71,"escena":null,"nombreaudio":"10\/71.mp3","geo_point_2d":{"lon":-0.36599648415263764,"lat":39.473131423689225}}},{"type":"Feature","geometry":{"coordinates":[-0.37096123623046323,39.47904002935476],"type":"Point"},"properties":{"gid":178,"nombre":"MUSEU SANT PIUS V","numpol":"S\/N","telefono":"0","ruta":6,"audio":42,"escena":null,"nombreaudio":"6\/42.mp3","geo_point_2d":{"lon":-0.37096123623046323,"lat":39.47904002935476}}},{"type":"Feature","geometry":{"coordinates":[-0.3697504768190423,39.4994354225895],"type":"Point"},"properties":{"gid":180,"nombre":"ANTIC MONESTIR DE SANT MIQUEL DELS REIS","numpol":"284","telefono":"963874000","ruta":4,"audio":18,"escena":null,"nombreaudio":"4\/18.mp3","geo_point_2d":{"lon":-0.3697504768190423,"lat":39.4994354225895}}},{"type":"Feature","geometry":{"coordinates":[-0.3726361665852016,39.479014855449],"type":"Point"},"properties":{"gid":181,"nombre":"PONT DE LA TRINITAT","numpol":null,"telefono":"0","ruta":3,"audio":13,"escena":null,"nombreaudio":"3\/13.mp3","geo_point_2d":{"lon":-0.3726361665852016,"lat":39.479014855449}}},{"type":"Feature","geometry":{"coordinates":[-0.37430120720198745,39.475854390014725],"type":"Point"},"properties":{"gid":211,"nombre":"EDIFICI DEL PUNT DE GANXO","numpol":"4","telefono":"0","ruta":8,"audio":54,"escena":null,"nombreaudio":"8\/54.mp3","geo_point_2d":{"lon":-0.37430120720198745,"lat":39.475854390014725}}}]}